[
  {
    "id": "auto-repair-denver-01",
    "name": "Quick Fix Auto Repair",
    "category": "auto-repair",
    "city": "denver",
    "state": "Colorado",
    "address": "789 Automotive Dr, Denver, CO 80202",
    "phone": "(303) 555-0789",
    "website": "https://quickfixauto.com",
    "rating": 4.9,
    "reviewCount": 234,
    "description": "Trusted auto repair shop with certified mechanics and quality parts guarantee.",
    "services": [
      "Oil Changes",
      "Brake Repair",
      "Engine Diagnostics",
      "Transmission Service"
    ],
    "neighborhood": "Capitol Hill",
    "hours": {
      "Monday": "7:00 AM - 6:00 PM",
      "Tuesday": "7:00 AM - 6:00 PM",
      "Wednesday": "7:00 AM - 6:00 PM",
      "Thursday": "7:00 AM - 6:00 PM",
      "Friday": "7:00 AM - 6:00 PM",
      "Saturday": "8:00 AM - 4:00 PM",
      "Sunday": "Closed"
    },
    "image": "https://images.pexels.com/photos/3806288/pexels-photo-3806288.jpeg",
    "premium": true
  },
  {
    "id": "auto-repair-denver-02",
    "name": "Denver Auto Service Center",
    "category": "auto-repair",
    "city": "denver",
    "state": "Colorado",
    "address": "321 Service Rd, Denver, CO 80203",
    "phone": "(303) 555-0321",
    "website": null,
    "rating": 4.7,
    "reviewCount": 178,
    "description": "Complete automotive care with modern equipment and experienced technicians.",
    "services": [
      "Full Service Repairs",
      "Tire Service",
      "AC Repair",
      "Electrical Work"
    ],
    "neighborhood": "Highland",
    "hours": {
      "Monday": "8:00 AM - 6:00 PM",
      "Tuesday": "8:00 AM - 6:00 PM",
      "Wednesday": "8:00 AM - 6:00 PM",
      "Thursday": "8:00 AM - 6:00 PM",
      "Friday": "8:00 AM - 6:00 PM",
      "Saturday": "8:00 AM - 3:00 PM",
      "Sunday": "Closed"
    },
    "image": "https://images.pexels.com/photos/3806288/pexels-photo-3806288.jpeg",
    "premium": false
  },
  {
    "id": "auto-repair-denver-03",
    "name": "Mountain View Auto",
    "category": "auto-repair",
    "city": "denver",
    "state": "Colorado",
    "address": "456 Mountain Rd, Denver, CO 80204",
    "phone": "(303) 555-0456",
    "website": null,
    "rating": 4.8,
    "reviewCount": 167,
    "description": "Family-owned auto repair shop serving Denver for over 20 years with honest service.",
    "services": [
      "General Repairs",
      "Preventive Maintenance",
      "Brake Service",
      "Oil Changes"
    ],
    "neighborhood": "Highlands Ranch",
    "hours": {
      "Monday": "7:30 AM - 5:30 PM",
      "Tuesday": "7:30 AM - 5:30 PM",
      "Wednesday": "7:30 AM - 5:30 PM",
      "Thursday": "7:30 AM - 5:30 PM",
      "Friday": "7:30 AM - 5:30 PM",
      "Saturday": "8:00 AM - 2:00 PM",
      "Sunday": "Closed"
    },
    "image": "https://images.pexels.com/photos/3806288/pexels-photo-3806288.jpeg",
    "premium": false
  },
  {
    "id": "nail-salons-dallas-01",
    "name": "Uptown Nail Spa",
    "category": "nail-salons",
    "city": "dallas",
    "state": "Texas",
    "address": "2906 McKinney Ave, Dallas, TX 75204",
    "phone": "(214) 953-6245",
    "website": "https://uptownnailspadallas.com/",
    "rating": 4.6,
    "reviewCount": 1372,
    "description": "Uptown Nail Spa",
    "services": [
      "Nail salon",
      "Massage spa"
    ],
    "neighborhood": "",
    "hours": {
      "Thursday": "9:30 AM–8 PM",
      "Friday": "9:30 AM–8 PM",
      "Saturday": "9 AM–7 PM",
      "Sunday": "10 AM–8 PM",
      "Monday": "9:30 AM–8 PM",
      "Tuesday": "9:30 AM–8 PM",
      "Wednesday": "9:30 AM–8 PM"
    },
    "image": "https://lh3.googleusercontent.com/p/AF1QipOFKW6-t3yb3jQuwfwYWUqJXPbXwGbwlMZ9IB2I",
    "premium": false,
    "latitude": 32.799823599999996,
    "longitude": -96.8006362
  },
  {
    "id": "nail-salons-dallas-02",
    "name": "Cosmo Nails & Spa",
    "category": "nail-salons",
    "city": "dallas",
    "state": "Texas",
    "address": "6060 E Mockingbird Ln, Dallas, TX 75206",
    "phone": "(469) 776-5408",
    "website": "https://cosmonailsandspa.com/",
    "rating": 4.8,
    "reviewCount": 901,
    "description": "Cosmo Nails & Spa",
    "services": [
      "Nail salon"
    ],
    "neighborhood": "",
    "hours": {
      "Thursday": "9:30 AM–7:30 PM",
      "Friday": "9:30 AM–7:30 PM",
      "Saturday": "9 AM–7 PM",
      "Sunday": "10:30 AM–6 PM",
      "Monday": "9:30 AM–7:30 PM",
      "Tuesday": "9:30 AM–7:30 PM",
      "Wednesday": "9:30 AM–7:30 PM"
    },
    "image": "https://lh3.googleusercontent.com/p/AF1QipPzGf6NMKvFGu_GxM3x5hGC79y0a4Arez-VTPmO",
    "premium": false,
    "latitude": 32.8358639,
    "longitude": -96.7623271
  },
  {
    "id": "nail-salons-dallas-03",
    "name": "Rose Couture Nail Bar",
    "category": "nail-salons",
    "city": "dallas",
    "state": "Texas",
    "address": "8061 Walnut Hill Ln Ste 900, Dallas, TX 75231",
    "phone": "(469) 677-0011",
    "website": "http://rcnailbar.com/",
    "rating": 4.5,
    "reviewCount": 1607,
    "description": "Rose Couture Nail Bar - Dallas",
    "services": [
      "Nail salon"
    ],
    "neighborhood": "",
    "hours": {
      "Thursday": "10 AM–7:30 PM",
      "Friday": "10 AM–7:30 PM",
      "Saturday": "9 AM–7 PM",
      "Sunday": "11:30 AM–5 PM",
      "Monday": "10 AM–7:30 PM",
      "Tuesday": "10 AM–7:30 PM",
      "Wednesday": "10 AM–7:30 PM"
    },
    "image": "https://lh3.googleusercontent.com/gps-cs-s/AC9h4nr9Dk4VVfJGbkxHH1KntEVU3GjGTxs8NpwNDvP-k6xHQr3dH9fbUVyp2Sjwxi_bx_6EysWECpT9UIKvd75ldF8kBG2xg_pJXpOPqZ4ZyFo1rM1DnP2_2idbeCfdUYIva8w4lx-9",
    "premium": false,
    "latitude": 32.8819844,
    "longitude": -96.76761979999999
  },
  {
    "id": "nail-salons-dallas-04",
    "name": "French Nails Luxury Spa & Bar",
    "category": "nail-salons",
    "city": "dallas",
    "state": "Texas",
    "address": "6757 Arapaho Rd Suite 719, Dallas, TX 75248",
    "phone": "(469) 498-4900",
    "website": "https://frenchnailshillcrest.com/",
    "rating": 4.9,
    "reviewCount": 1057,
    "description": "French Nails Luxury Spa & Bar",
    "services": [
      "Nail salon"
    ],
    "neighborhood": "",
    "hours": {
      "Thursday": "10 AM–7:30 PM",
      "Friday": "10 AM–7:30 PM",
      "Saturday": "9:30 AM–7 PM",
      "Sunday": "11 AM–6 PM",
      "Monday": "10 AM–7:30 PM",
      "Tuesday": "10 AM–7:30 PM",
      "Wednesday": "10 AM–7:30 PM"
    },
    "image": "https://lh3.googleusercontent.com/gps-cs-s/AC9h4npXQpVcukhGCM9qZXef8PwJiRbwKSPf716tzq1wQhM5n1or78ll884LKWLcTYNczX3rcriWzyWxBgzsfWjZ5tc9xaoJQuRUf8itpQZt4kUgAtWJappnQMEQzEPtf9GkGTWNxAsCOQ",
    "premium": false,
    "latitude": 32.9629142,
    "longitude": -96.79075619999999
  },
  {
    "id": "nail-salons-dallas-05",
    "name": "Royal Nails Spa",
    "category": "nail-salons",
    "city": "dallas",
    "state": "Texas",
    "address": "5930 Royal Ln ste F, Dallas, TX 75230",
    "phone": "(972) 598-0226",
    "website": "http://royalnailsspa.us/",
    "rating": 4.5,
    "reviewCount": 211,
    "description": "Royal Nails Spa",
    "services": [
      "Nail salon"
    ],
    "neighborhood": "",
    "hours": {
      "Thursday": "9:30 AM–7:30 PM",
      "Friday": "9:30 AM–7:30 PM",
      "Saturday": "9 AM–7 PM",
      "Sunday": "11:30 AM–5 PM",
      "Monday": "9:30 AM–7:30 PM",
      "Tuesday": "9:30 AM–7:30 PM",
      "Wednesday": "9:30 AM–7:30 PM"
    },
    "image": "https://lh3.googleusercontent.com/p/AF1QipP7Fr2bKyw1QNsm_WQT8sTn671thj3UI8VjgMSf",
    "premium": false,
    "latitude": 32.8944306,
    "longitude": -96.8058155
  },
  {
    "id": "nail-salons-dallas-06",
    "name": "HIGHLAND NAIL BAR",
    "category": "nail-salons",
    "city": "dallas",
    "state": "Texas",
    "address": "10675 E NW Hwy STE 1685, Dallas, TX 75238",
    "phone": "(214) 782-9359",
    "website": "https://highlandnailbardallas.com/",
    "rating": 4.6,
    "reviewCount": 322,
    "description": "HIGHLAND NAIL BAR - BEST NAIL SALON IN DALLAS ( 15% OFF MON-THUR 12PM-3PM, 10% OFF BIRTHDAY, 10% OFF STUDENTS)",
    "services": [
      "Nail salon",
      "Beauty salon",
      "Day spa",
      "Eyelash salon",
      "Facial spa",
      "Waxing hair removal service"
    ],
    "neighborhood": "",
    "hours": {
      "Thursday": "10 AM–7 PM",
      "Friday": "10 AM–7 PM",
      "Saturday": "10 AM–7 PM",
      "Sunday": "12–6 PM",
      "Monday": "10 AM–7 PM",
      "Tuesday": "10 AM–7 PM",
      "Wednesday": "10 AM–7 PM"
    },
    "image": "https://lh3.googleusercontent.com/p/AF1QipMZdeWI0riRd_QAKh2zOh3QSgEiA5ZVPZqlIu_u",
    "premium": false,
    "latitude": 32.8648591,
    "longitude": -96.70235219999999
  },
  {
    "id": "nail-salons-dallas-07",
    "name": "Nail Haus & Spa",
    "category": "nail-salons",
    "city": "dallas",
    "state": "Texas",
    "address": "3410 Main St, Dallas, TX 75226",
    "phone": "(214) 272-3730",
    "website": "https://nailhausandspa.com/",
    "rating": 4.8,
    "reviewCount": 230,
    "description": "Nail Haus & Spa",
    "services": [
      "Nail salon",
      "Facial spa"
    ],
    "neighborhood": "",
    "hours": {
      "Thursday": "10 AM–7 PM",
      "Friday": "10 AM–7 PM",
      "Saturday": "10 AM–8 PM",
      "Sunday": "11 AM–5 PM",
      "Monday": "Closed",
      "Tuesday": "10 AM–7 PM",
      "Wednesday": "10 AM–7 PM"
    },
    "image": "https://lh3.googleusercontent.com/gps-cs-s/AC9h4nrv4R4dj0jGg--alKUYMHFWkx6kb3pgQpqhbczQgjwWelaFuzM2b8YDAada0vNzT8GkzOxp-hKQ-dpfkFzyPjAz5EJp2SeV0S8JrDCfsHJ44MasAYtbKGFag1vyM9kHrpODX18",
    "premium": false,
    "latitude": 32.785374,
    "longitude": -96.775548
  },
  {
    "id": "nail-salons-dallas-08",
    "name": "French Nails Dallas",
    "category": "nail-salons",
    "city": "dallas",
    "state": "Texas",
    "address": "10455 N Central Expy Ste 120, Dallas, TX 75231",
    "phone": "(214) 934-5013",
    "website": null,
    "rating": 4.8,
    "reviewCount": 951,
    "description": "French Nails Dallas",
    "services": [
      "Nail salon"
    ],
    "neighborhood": "",
    "hours": {
      "Thursday": "10 AM–7 PM",
      "Friday": "10 AM–8 PM",
      "Saturday": "9 AM–8 PM",
      "Sunday": "11 AM–6 PM",
      "Monday": "10 AM–7 PM",
      "Tuesday": "10 AM–7 PM",
      "Wednesday": "10 AM–7 PM"
    },
    "image": "https://lh3.googleusercontent.com/p/AF1QipO34EdafQSmNNIWHGu7rPGPUFXbGEFuAruSlpnE",
    "premium": false,
    "latitude": 32.8890826,
    "longitude": -96.7716504
  },
  {
    "id": "nail-salons-dallas-09",
    "name": "The Best Nails Dallas",
    "category": "nail-salons",
    "city": "dallas",
    "state": "Texas",
    "address": "2821 McKinney Ave #5, Dallas, TX 75204",
    "phone": "(945) 400-5739",
    "website": null,
    "rating": 3.5,
    "reviewCount": 171,
    "description": "The Best Nails Dallas",
    "services": [
      "Nail salon"
    ],
    "neighborhood": "",
    "hours": {
      "Thursday": "9 AM–9 PM",
      "Friday": "9 AM–9 PM",
      "Saturday": "9 AM–9 PM",
      "Sunday": "9 AM–9 PM",
      "Monday": "9 AM–9 PM",
      "Tuesday": "9 AM–9 PM",
      "Wednesday": "9 AM–9 PM"
    },
    "image": "https://lh3.googleusercontent.com/p/AF1QipPUYy2wdYBp2oKrK9P2M-p7QSMnYVYjXHZJAwsc",
    "premium": false,
    "latitude": 32.7997109,
    "longitude": -96.80118019999999
  },
  {
    "id": "nail-salons-dallas-10",
    "name": "3311 Nail Bar",
    "category": "nail-salons",
    "city": "dallas",
    "state": "Texas",
    "address": "3323 Oak Lawn Ave, Dallas, TX 75219",
    "phone": "(972) 290-0165",
    "website": "https://www.scheduleanyone.com/3311NailBar/home/",
    "rating": 4.7,
    "reviewCount": 523,
    "description": "3311 Nail Bar",
    "services": [
      "Nail salon"
    ],
    "neighborhood": "",
    "hours": {
      "Thursday": "10 AM–8 PM",
      "Friday": "10 AM–8 PM",
      "Saturday": "9 AM–7 PM",
      "Sunday": "11 AM–6 PM",
      "Monday": "10 AM–8 PM",
      "Tuesday": "10 AM–8 PM",
      "Wednesday": "10 AM–8 PM"
    },
    "image": "https://lh3.googleusercontent.com/p/AF1QipP4BtQdPuVh-7ISR-EUoE8LyvGfmWQ6hl-K1d24",
    "premium": false,
    "latitude": 32.8108717,
    "longitude": -96.80734269999999
  },
  {
    "id": "nail-salons-dallas-11",
    "name": "High Five Nail Bar",
    "category": "nail-salons",
    "city": "dallas",
    "state": "Texas",
    "address": "2929 Oak Lawn Ave Unit 140, Dallas, TX 75219",
    "phone": "(972) 803-3048",
    "website": "https://highfivenailbar.com/?utm_source=Google+Profile&utm_medium=organic",
    "rating": 4.7,
    "reviewCount": 357,
    "description": "High Five Nail Bar",
    "services": [
      "Nail salon"
    ],
    "neighborhood": "",
    "hours": {
      "Thursday": "10 AM–8 PM",
      "Friday": "10 AM–8 PM",
      "Saturday": "9 AM–7 PM",
      "Sunday": "11 AM–5:30 PM",
      "Monday": "10 AM–8 PM",
      "Tuesday": "10 AM–8 PM",
      "Wednesday": "10 AM–8 PM"
    },
    "image": "https://lh3.googleusercontent.com/p/AF1QipMm05Gu-bqaAm2ZGt3FJlq23FUJaYUBrNn1vJ9F",
    "premium": false,
    "latitude": 32.8083094,
    "longitude": -96.8098186
  },
  {
    "id": "nail-salons-dallas-12",
    "name": "Bliss Nail Spa Dallas",
    "category": "nail-salons",
    "city": "dallas",
    "state": "Texas",
    "address": "6464 E NW Hwy Ste #312, Dallas, TX 75214",
    "phone": "(214) 446-9827",
    "website": "https://www.blissnailspadallas.com/",
    "rating": 4.3,
    "reviewCount": 324,
    "description": "Bliss Nail Spa Dallas ( Top Rated )",
    "services": [
      "Nail salon"
    ],
    "neighborhood": "",
    "hours": {
      "Thursday": "10 AM–8 PM",
      "Friday": "10 AM–8 PM",
      "Saturday": "9:30 AM–7 PM",
      "Sunday": "12–6 PM",
      "Monday": "10 AM–8 PM",
      "Tuesday": "10 AM–8 PM",
      "Wednesday": "10 AM–8 PM"
    },
    "image": "https://lh3.googleusercontent.com/p/AF1QipMi8XzIr-Ct9lYrKpHmDP9EDWdo_ic7Qk5Pl6M",
    "premium": false,
    "latitude": 32.856611199999996,
    "longitude": -96.7512304
  },
  {
    "id": "nail-salons-dallas-13",
    "name": "Luxe Nail Studio",
    "category": "nail-salons",
    "city": "dallas",
    "state": "Texas",
    "address": "123 Main St, Dallas, TX 75201",
    "phone": "(214) 555-0123",
    "website": "https://luxenailstudio.com",
    "rating": 4.8,
    "reviewCount": 156,
    "description": "Premium nail salon offering manicures, pedicures, and nail art services in a luxurious setting.",
    "services": [
      "Manicures",
      "Pedicures",
      "Nail Art",
      "Gel Polish",
      "Acrylic Nails"
    ],
    "neighborhood": "Downtown",
    "hours": {
      "Monday": "9:00 AM - 7:00 PM",
      "Tuesday": "9:00 AM - 7:00 PM",
      "Wednesday": "9:00 AM - 7:00 PM",
      "Thursday": "9:00 AM - 8:00 PM",
      "Friday": "9:00 AM - 8:00 PM",
      "Saturday": "8:00 AM - 6:00 PM",
      "Sunday": "10:00 AM - 5:00 PM"
    },
    "image": "https://images.pexels.com/photos/3997379/pexels-photo-3997379.jpeg",
    "premium": true
  },
  {
    "id": "nail-salons-dallas-14",
    "name": "Dallas Nails & Spa",
    "category": "nail-salons",
    "city": "dallas",
    "state": "Texas",
    "address": "456 Oak Ave, Dallas, TX 75202",
    "phone": "(214) 555-0456",
    "website": null,
    "rating": 4.6,
    "reviewCount": 89,
    "description": "Full-service nail salon and spa with experienced technicians and relaxing atmosphere.",
    "services": [
      "Manicures",
      "Pedicures",
      "Spa Treatments",
      "Waxing"
    ],
    "neighborhood": "Uptown",
    "hours": {
      "Monday": "10:00 AM - 8:00 PM",
      "Tuesday": "10:00 AM - 8:00 PM",
      "Wednesday": "10:00 AM - 8:00 PM",
      "Thursday": "10:00 AM - 8:00 PM",
      "Friday": "10:00 AM - 8:00 PM",
      "Saturday": "9:00 AM - 7:00 PM",
      "Sunday": "11:00 AM - 6:00 PM"
    },
    "image": "https://images.pexels.com/photos/3997974/pexels-photo-3997974.jpeg",
    "premium": false
  },
  {
    "id": "nail-salons-frisco-01",
    "name": "Onyx Nail Bar Frisco",
    "category": "nail-salons",
    "city": "frisco",
    "state": "Texas",
    "address": "Frisco, TX",
    "phone": "(214) 705-1744",
    "website": null,
    "rating": 4.3,
    "reviewCount": 939,
    "description": "Professional nail salon services in Frisco. Top-rated nail salon offering manicures, pedicures, and nail art",
    "services": [
      "Manicure",
      "Pedicure"
    ],
    "neighborhood": "Central Frisco",
    "hours": {
      "Monday": "9:00 AM - 6:00 PM",
      "Tuesday": "9:00 AM - 6:00 PM",
      "Wednesday": "9:00 AM - 6:00 PM",
      "Thursday": "9:00 AM - 7:00 PM",
      "Friday": "9:00 AM - 7:00 PM",
      "Saturday": "9:00 AM - 5:00 PM",
      "Sunday": "Closed"
    },
    "image": "https://near-me-directories.s3.us-east-2.amazonaws.com/nail-salons/nail-salons-frisco-0.png",
    "premium": false
  },
  {
    "id": "nail-salons-frisco-03",
    "name": "Ooh La La Nail and Spa",
    "category": "nail-salons",
    "city": "frisco",
    "state": "Texas",
    "address": "Frisco, TX",
    "phone": "(469) 200-5115",
    "website": null,
    "rating": 4.8,
    "reviewCount": 577,
    "description": "Professional nail salon services in Frisco. Top-rated nail salon offering manicures, pedicures, and nail art",
    "services": [
      "Manicure",
      "Pedicure"
    ],
    "neighborhood": "North Frisco",
    "hours": {
      "Monday": "9:00 AM - 6:00 PM",
      "Tuesday": "9:00 AM - 6:00 PM",
      "Wednesday": "9:00 AM - 6:00 PM",
      "Thursday": "9:00 AM - 7:00 PM",
      "Friday": "9:00 AM - 7:00 PM",
      "Saturday": "9:00 AM - 5:00 PM",
      "Sunday": "Closed"
    },
    "image": "https://near-me-directories.s3.us-east-2.amazonaws.com/nail-salons/nail-salons-frisco-3.png",
    "premium": false
  },
  {
    "id": "nail-salons-frisco-04",
    "name": "Universal Nail & Spa Of Frisco",
    "category": "nail-salons",
    "city": "frisco",
    "state": "Texas",
    "address": "Frisco, TX",
    "phone": "(972) 797-9999",
    "website": null,
    "rating": 4.9,
    "reviewCount": 330,
    "description": "Professional nail salon services in Frisco. Top-rated nail salon offering manicures, pedicures, and nail art",
    "services": [
      "Manicure",
      "Pedicure"
    ],
    "neighborhood": "East Frisco",
    "hours": {
      "Monday": "9:00 AM - 6:00 PM",
      "Tuesday": "9:00 AM - 6:00 PM",
      "Wednesday": "9:00 AM - 6:00 PM",
      "Thursday": "9:00 AM - 7:00 PM",
      "Friday": "9:00 AM - 7:00 PM",
      "Saturday": "9:00 AM - 5:00 PM",
      "Sunday": "Closed"
    },
    "image": "https://near-me-directories.s3.us-east-2.amazonaws.com/nail-salons/nail-salons-frisco-4.png",
    "premium": true
  },
  {
    "id": "nail-salons-frisco-05",
    "name": "Fabuluxe Nails & Spa",
    "category": "nail-salons",
    "city": "frisco",
    "state": "Texas",
    "address": "Frisco, TX",
    "phone": "(972) 668-3970",
    "website": null,
    "rating": 4.9,
    "reviewCount": 406,
    "description": "Professional nail salon services in Frisco. Top-rated nail salon offering manicures, pedicures, and nail art",
    "services": [
      "Manicure",
      "Pedicure"
    ],
    "neighborhood": "South Frisco",
    "hours": {
      "Monday": "9:00 AM - 6:00 PM",
      "Tuesday": "9:00 AM - 6:00 PM",
      "Wednesday": "9:00 AM - 6:00 PM",
      "Thursday": "9:00 AM - 7:00 PM",
      "Friday": "9:00 AM - 7:00 PM",
      "Saturday": "9:00 AM - 5:00 PM",
      "Sunday": "Closed"
    },
    "image": "https://near-me-directories.s3.us-east-2.amazonaws.com/nail-salons/nail-salons-frisco-5.png",
    "premium": true
  },
  {
    "id": "nail-salons-frisco-06",
    "name": "Dash Nail Spa",
    "category": "nail-salons",
    "city": "frisco",
    "state": "Texas",
    "address": "Frisco, TX",
    "phone": "(214) 308-9595",
    "website": null,
    "rating": 4.8,
    "reviewCount": 230,
    "description": "Professional nail salon services in Frisco. Top-rated nail salon offering manicures, pedicures, and nail art",
    "services": [
      "Manicure",
      "Pedicure"
    ],
    "neighborhood": "Downtown Frisco",
    "hours": {
      "Monday": "9:00 AM - 6:00 PM",
      "Tuesday": "9:00 AM - 6:00 PM",
      "Wednesday": "9:00 AM - 6:00 PM",
      "Thursday": "9:00 AM - 7:00 PM",
      "Friday": "9:00 AM - 7:00 PM",
      "Saturday": "9:00 AM - 5:00 PM",
      "Sunday": "Closed"
    },
    "image": "https://near-me-directories.s3.us-east-2.amazonaws.com/nail-salons/nail-salons-frisco-6.png",
    "premium": false
  },
  {
    "id": "nail-salons-frisco-07",
    "name": "American Nail Salon & Bar",
    "category": "nail-salons",
    "city": "frisco",
    "state": "Texas",
    "address": "Frisco, TX",
    "phone": "(469) 200-8232",
    "website": null,
    "rating": 4.8,
    "reviewCount": 689,
    "description": "Professional nail salon services in Frisco. Top-rated nail salon offering manicures, pedicures, and nail art",
    "services": [
      "Manicure",
      "Pedicure"
    ],
    "neighborhood": "Legacy West",
    "hours": {
      "Monday": "9:00 AM - 6:00 PM",
      "Tuesday": "9:00 AM - 6:00 PM",
      "Wednesday": "9:00 AM - 6:00 PM",
      "Thursday": "9:00 AM - 7:00 PM",
      "Friday": "9:00 AM - 7:00 PM",
      "Saturday": "9:00 AM - 5:00 PM",
      "Sunday": "Closed"
    },
    "image": "https://near-me-directories.s3.us-east-2.amazonaws.com/nail-salons/nail-salons-frisco-0.png",
    "premium": false
  },
  {
    "id": "nail-salons-frisco-08",
    "name": "Grey Stone Nails Bar",
    "category": "nail-salons",
    "city": "frisco",
    "state": "Texas",
    "address": "6700 Stonebrook Pkwy #103, Frisco, TX 75034",
    "phone": "(469) 983-6700",
    "website": "http://greystonenailbarfrisco.com/",
    "rating": 4.5,
    "reviewCount": 876,
    "description": null,
    "services": [
      "Nail salon"
    ],
    "neighborhood": null,
    "hours": {
      "Thursday": "9:30 AM–7:30 PM",
      "Friday": "9:30 AM–7:30 PM",
      "Saturday": "9 AM–7 PM",
      "Sunday": "10:30 AM–6 PM",
      "Monday": "9:30 AM–7:30 PM",
      "Tuesday": "9:30 AM–7:30 PM",
      "Wednesday": "9:30 AM–7:30 PM"
    },
    "image": "https://lh3.googleusercontent.com/p/AF1QipMNEhL_GDSYto6U3K-vcHQrXCBoVdSebUA3bZOg",
    "premium": false,
    "latitude": 33.1309964,
    "longitude": -96.82727
  },
  {
    "id": "nail-salons-frisco-09",
    "name": "Aria Nail Bar",
    "category": "nail-salons",
    "city": "frisco",
    "state": "Texas",
    "address": "Frisco, TX",
    "phone": "(214) 872-1939",
    "website": null,
    "rating": 4.3,
    "reviewCount": 726,
    "description": "Professional nail salon services in Frisco. Top-rated nail salon offering manicures, pedicures, and nail art",
    "services": [
      "Manicure",
      "Pedicure"
    ],
    "neighborhood": "The Star",
    "hours": {
      "Monday": "9:00 AM - 6:00 PM",
      "Tuesday": "9:00 AM - 6:00 PM",
      "Wednesday": "9:00 AM - 6:00 PM",
      "Thursday": "9:00 AM - 7:00 PM",
      "Friday": "9:00 AM - 7:00 PM",
      "Saturday": "9 AM–5 PM",
      "Sunday": "Closed"
    },
    "image": "https://near-me-directories.s3.us-east-2.amazonaws.com/nail-salons/nail-salons-frisco-0.png",
    "premium": false
  },
  {
    "id": "nail-salons-frisco-10",
    "name": "Elegant Nail Salon",
    "category": "nail-salons",
    "city": "frisco",
    "state": "Texas",
    "address": "Frisco, TX",
    "phone": "(972) 294-5634",
    "website": null,
    "rating": 4.9,
    "reviewCount": 140,
    "description": "Professional nail salon services in Frisco. Top-rated nail salon offering manicures, pedicures, and nail art",
    "services": [
      "Manicure",
      "Pedicure"
    ],
    "neighborhood": "Preston Road",
    "hours": {
      "Monday": "9:00 AM - 6:00 PM",
      "Tuesday": "9:00 AM - 6:00 PM",
      "Wednesday": "9:00 AM - 6:00 PM",
      "Thursday": "9:00 AM - 7:00 PM",
      "Friday": "9:00 AM - 7:00 PM",
      "Saturday": "9:00 AM - 5:00 PM",
      "Sunday": "Closed"
    },
    "image": "https://near-me-directories.s3.us-east-2.amazonaws.com/nail-salons/nail-salons-frisco-0.png",
    "premium": false
  },
  {
    "id": "nail-salons-garland-01",
    "name": "Lavish Nail & Spa",
    "category": "nail-salons",
    "city": "garland",
    "state": "Texas",
    "address": "1440 W Buckingham Rd, Garland, TX 75042",
    "phone": "(214) 501-3619",
    "website": "https://lavishnailandspagarland.com/",
    "rating": 4.7,
    "reviewCount": 486,
    "description": "",
    "services": [
      "Nail salon",
      "Beauty salon",
      "Waxing hair removal service"
    ],
    "neighborhood": "",
    "hours": {
      "Wednesday": "9:30 AM–7:30 PM",
      "Thursday": "9:30 AM–7:30 PM",
      "Friday": "9:30 AM–7:30 PM",
      "Saturday": "9 AM–7 PM",
      "Sunday": "11:30 AM–6 PM",
      "Monday": "9:30 AM–7:30 PM",
      "Tuesday": "9:30 AM–7:30 PM"
    },
    "image": "https://lh3.googleusercontent.com/p/AF1QipMg7YTpCO3fGtP3ioOvV1bOPeF0fFHiXkIlWHo3",
    "premium": false
  },
  {
    "id": "nail-salons-garland-02",
    "name": "Luxury Nails",
    "category": "nail-salons",
    "city": "garland",
    "state": "Texas",
    "address": "5435 N Garland Ave # 115, Garland, TX 75040",
    "phone": "(972) 414-3604",
    "website": null,
    "rating": 4.7,
    "reviewCount": 555,
    "description": "",
    "services": [
      "Nail salon"
    ],
    "neighborhood": "",
    "hours": {
      "Wednesday": "10 AM–7 PM",
      "Thursday": "10 AM–7 PM",
      "Friday": "10 AM–7 PM",
      "Saturday": "9 AM–6 PM",
      "Sunday": "Closed",
      "Monday": "10 AM–7 PM",
      "Tuesday": "10 AM–7 PM"
    },
    "image": "https://lh3.googleusercontent.com/gps-cs-s/AC9h4noFY2Mjm1_wp7M_7dlv0TFcPQySTx0dblydI-Gm_B3K6k3_vq5Mj7tH6o-KCsz0GmP23uLLQ_bmLQ8tW59_eMlOUinMRKFlNrRoLDTH-UOsYJx3tqTl3K7YEQHxez2lMENAdZQd",
    "premium": false
  },
  {
    "id": "nail-salons-garland-03",
    "name": "Deluxe Nails & Spa",
    "category": "nail-salons",
    "city": "garland",
    "state": "Texas",
    "address": "6505 Duck Creek Dr, Garland, TX 75043",
    "phone": "(972) 303-7000",
    "website": null,
    "rating": 4.6,
    "reviewCount": 359,
    "description": "",
    "services": [
      "Nail salon"
    ],
    "neighborhood": "",
    "hours": {
      "Wednesday": "10 AM–7 PM",
      "Thursday": "10 AM–7 PM",
      "Friday": "10 AM–7 PM",
      "Saturday": "10 AM–7 PM",
      "Sunday": "12–5 PM",
      "Monday": "10 AM–7 PM",
      "Tuesday": "Closed"
    },
    "image": "https://lh3.googleusercontent.com/p/AF1QipNRoTizxBalZnhIy3weplgjJu15V5SRd5VBGKby",
    "premium": false
  },
  {
    "id": "nail-salons-garland-04",
    "name": "Ola Nail Spa",
    "category": "nail-salons",
    "city": "garland",
    "state": "Texas",
    "address": "1548 S First St, Garland, TX 75040",
    "phone": "(469) 661-8258",
    "website": null,
    "rating": 4.5,
    "reviewCount": 238,
    "description": "",
    "services": [
      "Nail salon"
    ],
    "neighborhood": "",
    "hours": {
      "Wednesday": "10 AM–7:30 PM",
      "Thursday": "10 AM–7:30 PM",
      "Friday": "10 AM–7:30 PM",
      "Saturday": "9 AM–7:30 PM",
      "Sunday": "12–6 PM",
      "Monday": "11 AM–7:30 PM",
      "Tuesday": "10 AM–7:30 PM"
    },
    "image": "https://lh3.googleusercontent.com/p/AF1QipNCACyQkJFekarrgxCpqUTknAasyTPuf6PZqXcG",
    "premium": false
  },
  {
    "id": "nail-salons-garland-05",
    "name": "Avalon Nails",
    "category": "nail-salons",
    "city": "garland",
    "state": "Texas",
    "address": "1311 Marketplace Dr #134, Garland, TX 75041",
    "phone": "(469) 372-7706",
    "website": null,
    "rating": 4.3,
    "reviewCount": 399,
    "description": "",
    "services": [
      "Nail salon"
    ],
    "neighborhood": "",
    "hours": {
      "Wednesday": "9:30 AM–7 PM",
      "Thursday": "9:30 AM–7 PM",
      "Friday": "9:30 AM–7 PM",
      "Saturday": "9:30 AM–6 PM",
      "Sunday": "Closed",
      "Monday": "9:30 AM–7 PM",
      "Tuesday": "9:30 AM–7 PM"
    },
    "image": "https://lh3.googleusercontent.com/gps-cs-s/AC9h4npd9dFx6wYq2IGbdr_pb57q7ub9wg-m4DeNWRB2CoadsxgwdqipriuJdvoOz4Rl1n--l3NLqnDVV4Yr-h6GoagpILYHBGAIw1IDs05oqTu90DM6GYy2O9rfEe88QyoAyXlKsa4",
    "premium": false
  },
  {
    "id": "nail-salons-frisco-11",
    "name": "Paris Nail Bar Frisco",
    "category": "nail-salons",
    "city": "frisco",
    "state": "Texas",
    "address": "360 Stonebrook Pkwy #108, Frisco, TX 75036",
    "phone": "(972) 625-7979",
    "website": "https://www.parisnailbarfriscotx.com/",
    "rating": 4.6,
    "reviewCount": 584,
    "description": null,
    "services": [
      "Nail salon",
      "Beauty salon",
      "Day spa",
      "Massage spa",
      "Spa",
      "Waxing hair removal service"
    ],
    "neighborhood": null,
    "hours": {
      "Thursday": "10 AM–7 PM",
      "Friday": "10 AM–7 PM",
      "Saturday": "9 AM–7 PM",
      "Sunday": "11 AM–5 PM",
      "Monday": "10 AM–7 PM",
      "Tuesday": "10 AM–7 PM",
      "Wednesday": "10 AM–7 PM"
    },
    "image": "https://lh3.googleusercontent.com/p/AF1QipOquT4M3i4pwPDKWAU6nGRFo8UGd1wmn_fXmq2p",
    "premium": false,
    "latitude": 33.1453214,
    "longitude": -96.8895499
  },
  {
    "id": "nail-salons-frisco-12",
    "name": "The Eden Spa",
    "category": "nail-salons",
    "city": "frisco",
    "state": "Texas",
    "address": "6959 Lebanon Rd Space 105, Frisco, TX 75034",
    "phone": "(972) 731-8882",
    "website": "http://theedenspafrisco.com/",
    "rating": 4.7,
    "reviewCount": 480,
    "description": null,
    "services": [
      "Nail salon"
    ],
    "neighborhood": null,
    "hours": {
      "Thursday": "9:30 AM–7 PM",
      "Friday": "9:30 AM–7 PM",
      "Saturday": "9:30 AM–6:30 PM",
      "Sunday": "11:30 AM–6 PM",
      "Monday": "9:30 AM–7 PM",
      "Tuesday": "9:30 AM–7 PM",
      "Wednesday": "9:30 AM–7 PM"
    },
    "image": "https://lh3.googleusercontent.com/p/AF1QipOYPCWKQsJQT_2RyuBHGISBmdnGw4QOA8P4JMSs",
    "premium": false,
    "latitude": 33.1219319,
    "longitude": -96.8251952
  },
  {
    "id": "nail-salons-frisco-15",
    "name": "Happy Nails & Spa Frisco",
    "category": "nail-salons",
    "city": "frisco",
    "state": "Texas",
    "address": "8745 Gary Burns Dr Unit 124, Frisco, TX 75034",
    "phone": "(214) 705-0688",
    "website": null,
    "rating": 4.5,
    "reviewCount": 367,
    "description": null,
    "services": [
      "Nail salon",
      "Waxing hair removal service"
    ],
    "neighborhood": null,
    "hours": {
      "Thursday": "10 AM–6:30 PM",
      "Friday": "10 AM–6:30 PM",
      "Saturday": "9:30 AM–6:30 PM",
      "Sunday": "11 AM–6 PM",
      "Monday": "Closed",
      "Tuesday": "10 AM–6:30 PM",
      "Wednesday": "10 AM–6:30 PM"
    },
    "image": "https://lh3.googleusercontent.com/p/AF1QipNIIlPzyb-mwzaEZADHVjtkxXanRAjl94CuBvGs",
    "premium": false,
    "latitude": 33.1488227,
    "longitude": -96.8069915
  },
  {
    "id": "nail-salons-frisco-17",
    "name": "Belle Vous Beyond Nail Spa",
    "category": "nail-salons",
    "city": "frisco",
    "state": "Texas",
    "address": "6363 Dallas Pkwy #117, Frisco, TX 75034",
    "phone": "(469) 803-5545",
    "website": "https://bellevousbeyondfrisco.com/",
    "rating": 4.4,
    "reviewCount": 379,
    "description": null,
    "services": [
      "Nail salon",
      "Eyelash salon"
    ],
    "neighborhood": null,
    "hours": {
      "Thursday": "9:30 AM–7:30 PM",
      "Friday": "9:30 AM–7:30 PM",
      "Saturday": "9 AM–7 PM",
      "Sunday": "11:30 AM–6 PM",
      "Monday": "9:30 AM–7:30 PM",
      "Tuesday": "9:30 AM–7:30 PM",
      "Wednesday": "9:30 AM–7:30 PM"
    },
    "image": "https://lh3.googleusercontent.com/p/AF1QipPFXpQfI2sb94sZ_xmpyZxxugDPulsLlTESlhlT",
    "premium": false,
    "latitude": 33.13001,
    "longitude": -96.8262521
  },
  {
    "id": "nail-salons-frisco-21",
    "name": "D&N Nail Bar & Lashes - $20 off on Happy Hour $120 and up",
    "category": "nail-salons",
    "city": "frisco",
    "state": "Texas",
    "address": "9144 Prestmont Pl #240, Frisco, TX 75035",
    "phone": "(469) 803-5889",
    "website": "https://dandnnailbarandlashes.com/",
    "rating": 4.6,
    "reviewCount": 364,
    "description": null,
    "services": [
      "Nail salon"
    ],
    "neighborhood": null,
    "hours": {
      "Thursday": "9:45 AM–8:30 PM",
      "Friday": "9:45 AM–8:30 PM",
      "Saturday": "9:30 AM–8 PM",
      "Sunday": "10:45 AM–8 PM",
      "Monday": "9:45 AM–8:30 PM",
      "Tuesday": "9:45 AM–8:30 PM",
      "Wednesday": "9:45 AM–8:30 PM"
    },
    "image": "https://lh3.googleusercontent.com/gps-cs-s/AC9h4npQuaqqJq01UihDR9iNWIf1Zj5ntAmXSre4a4PlgbYgDhBPrQxiNXvKaoha33OcxHLM68yz85D1gBFp6TiWE9nvdLRkh5LGERcY4R5XNFeqoqlkuf9XqUGyjeDPsqZTC40Be3SOhw",
    "premium": false,
    "latitude": 33.1112872,
    "longitude": -96.8041726
  },
  {
    "id": "nail-salons-frisco-23",
    "name": "Ooh La La Nail and Spa",
    "category": "nail-salons",
    "city": "frisco",
    "state": "Texas",
    "address": "6363 Dallas Pkwy #117, Frisco, TX 75034",
    "phone": "(469) 200-5115",
    "website": "https://www.ooh-lala.org/",
    "rating": 4.8,
    "reviewCount": 584,
    "description": null,
    "services": [
      "Nail salon"
    ],
    "neighborhood": null,
    "hours": {
      "Thursday": "9:30 AM–9 PM",
      "Friday": "9:30 AM–9 PM",
      "Saturday": "9 AM–7 PM",
      "Sunday": "11 AM–6 PM",
      "Monday": "9:30 AM–9 PM",
      "Tuesday": "9:30 AM–9 PM",
      "Wednesday": "9:30 AM–7:30 PM"
    },
    "image": "https://lh3.googleusercontent.com/gps-cs-s/AC9h4nogveegUa5-kxoyY_Q4SCV-XLxp8jLMP3Jv-0Db2nOMDtReAyZb8R1gePKZu1sUjWcBmAgxbEGFMjglFPFBBqlA64xXErKUYH2Wl9wB38EVPt603zOFeo-CFKyUk4ENj97t9e6hMA",
    "premium": false,
    "latitude": 33.1299166,
    "longitude": -96.8261781
  },
  {
    "id": "nail-salons-frisco-26",
    "name": "Willow Nail Lounge",
    "category": "nail-salons",
    "city": "frisco",
    "state": "Texas",
    "address": "11901 Dallas Pkwy #300, Frisco, TX 75033",
    "phone": "(469) 362-6373",
    "website": "https://willownaillounge.com/",
    "rating": 4.7,
    "reviewCount": 517,
    "description": "Professional nail salon services in Frisco. Top-rated nail salon offering manicures, pedicures, and nail art",
    "services": [
      "Nail salon"
    ],
    "neighborhood": "West Frisco",
    "hours": {
      "Thursday": "10 AM–7 PM",
      "Friday": "10 AM–7 PM",
      "Saturday": "9 AM–6 PM",
      "Sunday": "12–6 PM",
      "Monday": "10 AM–7 PM",
      "Tuesday": "10 AM–7 PM",
      "Wednesday": "10 AM–7 PM"
    },
    "image": "https://lh3.googleusercontent.com/p/AF1QipMinLoGOmcEeGhjNusArxhqicnIyH_MlhB4nIg",
    "premium": false,
    "latitude": 33.1770139,
    "longitude": -96.8404792
  },
  {
    "id": "nail-salons-frisco-29",
    "name": "Modern Nails",
    "category": "nail-salons",
    "city": "frisco",
    "state": "Texas",
    "address": "7151 Preston Rd #341c, Frisco, TX 75034",
    "phone": "(469) 200-5822",
    "website": "https://modernnailsfrisco.com/",
    "rating": 4.5,
    "reviewCount": 197,
    "description": null,
    "services": [
      "Nail salon"
    ],
    "neighborhood": null,
    "hours": {
      "Thursday": "10 AM–7 PM",
      "Friday": "10 AM–7 PM",
      "Saturday": "10 AM–7 PM",
      "Sunday": "11:30 AM–5 PM",
      "Monday": "10 AM–7 PM",
      "Tuesday": "Closed",
      "Wednesday": "10 AM–7 PM"
    },
    "image": "https://lh3.googleusercontent.com/p/AF1QipMjmM4_pYhfTPtcKU9GuTuFwDrbYWnRe0ENRgto",
    "premium": false,
    "latitude": 33.1379013,
    "longitude": -96.8060684
  },
  {
    "id": "nail-salons-austin-01",
    "name": "MILANO NAIL SPA AUSTIN",
    "category": "nail-salons",
    "city": "austin",
    "state": "Texas",
    "address": "2755 E 7th St, Austin, TX 78702",
    "phone": "(737) 781-9036",
    "website": "https://milanonailspaatx.com/",
    "rating": 4.9,
    "reviewCount": 6050,
    "description": "Award-winning modern nail bar with organic products and artistic nail designs.",
    "services": [
      "Manicures",
      "Pedicures",
      "Beauty Treatments"
    ],
    "neighborhood": "North Austin",
    "hours": {
      "Thursday": "9:30 AM–7:30 PM",
      "Friday": "9:30 AM–7:30 PM",
      "Saturday": "9:30 AM–6:30 PM",
      "Sunday": "11 AM–5:30 PM",
      "Monday": "9:30 AM–7:30 PM",
      "Tuesday": "9:30 AM–7:30 PM",
      "Wednesday": "9:30 AM–7:30 PM"
    },
    "image": "https://lh3.googleusercontent.com/gps-cs-s/AC9h4npe3WQmwhDmPr36V7DoRamiHGAmhEfsEc4EU4oeYiStiQKbyK2u8x08uu7un8O0qK4S32ne1QBH74hi_hgO6CRlqpVnm_wThOiCXKcqAGhS9Ov03_CUrhmeDQ-Cy59SjwexOEWe",
    "premium": true,
    "bookingLinks": [
      "https://adorenaillounge.com/contact"
    ],
    "latitude": 30.3126888,
    "longitude": -97.7386093
  },
  {
    "id": "nail-salons-austin-05",
    "name": "Enza Nails & Lashes",
    "category": "nail-salons",
    "city": "austin",
    "state": "Texas",
    "address": "1100 S Lamar Blvd #1140, Austin, TX 78704",
    "phone": "(512) 599-5678",
    "website": "https://booking.galaxyaccess.us/enza8810",
    "rating": 4.9,
    "reviewCount": 1677,
    "description": "Professional nail and lash services in a welcoming environment.",
    "services": [
      "Manicures",
      "Pedicures",
      "Eyelash Extensions"
    ],
    "neighborhood": "South Austin",
    "hours": {
      "Thursday": "10 AM–7 PM",
      "Friday": "10 AM–7 PM",
      "Saturday": "10 AM–7 PM",
      "Sunday": "11 AM–5 PM",
      "Monday": "10 AM–7 PM",
      "Tuesday": "10 AM–7 PM",
      "Wednesday": "10 AM–7 PM"
    },
    "image": "https://lh3.googleusercontent.com/p/AF1QipOWi6GzzsMnNPQLF5GkCrM7pEwUFXjqzDTZOkxl",
    "premium": true,
    "bookingLinks": [],
    "latitude": 30.2556193,
    "longitude": -97.7627384
  },
  {
    "id": "nail-salons-austin-06",
    "name": "Relax Nails & Spa",
    "category": "nail-salons",
    "city": "austin",
    "state": "Texas",
    "address": "3016 Guadalupe St b300, Austin, TX 78705",
    "phone": "(512) 608-4016",
    "website": "https://relaxnailsdowntown.com/",
    "rating": 4.6,
    "reviewCount": 450,
    "description": "Relaxing nail spa offering comprehensive nail care and waxing services.",
    "services": [
      "Manicures",
      "Pedicures",
      "Waxing Services",
      "Spa Treatments"
    ],
    "neighborhood": "Campus Area",
    "hours": {
      "Thursday": "10 AM–7:30 PM",
      "Friday": "10 AM–7:30 PM",
      "Saturday": "10 AM–7:30 PM",
      "Sunday": "11 AM–5 PM",
      "Monday": "10 AM–7:30 PM",
      "Tuesday": "10 AM–7:30 PM",
      "Wednesday": "10 AM–7:30 PM"
    },
    "image": "https://lh3.googleusercontent.com/p/AF1QipNQC5UJQmXI5koaluCX-etWhmF3sxXDZD9YCDvi",
    "premium": false,
    "bookingLinks": [
      "https://www.m.me/107553681971522",
      "https://relaxnailsdowntown.com/#contact-us"
    ],
    "latitude": 30.2976842,
    "longitude": -97.7414966
  },
  {
    "id": "nail-salons-austin-07",
    "name": "Domain Nails & Spa",
    "category": "nail-salons",
    "city": "austin",
    "state": "Texas",
    "address": "3310 W Braker Ln Bldg 2, Ste 200, Austin, TX 78758",
    "phone": "(737) 222-5259",
    "website": "https://www.domainnailsandspa.com/",
    "rating": 4.5,
    "reviewCount": 715,
    "description": "Full-service nail spa conveniently located in the Domain shopping area.",
    "services": [
      "Manicures",
      "Pedicures",
      "Spa Treatments"
    ],
    "neighborhood": "North Austin",
    "hours": {
      "Thursday": "9:30 AM–7:30 PM",
      "Friday": "9:30 AM–7:30 PM",
      "Saturday": "9:30 AM–7:30 PM",
      "Sunday": "11 AM–6 PM",
      "Monday": "9:30 AM–7:30 PM",
      "Tuesday": "9:30 AM–7:30 PM",
      "Wednesday": "9:30 AM–7:30 PM"
    },
    "image": "https://lh3.googleusercontent.com/p/AF1QipMeh-2rSjP5Q1uxdiSZ52h68Wk-R08A9KXzlRWI",
    "premium": false,
    "bookingLinks": [
      "https://www.domainnailsandspa.com/contact"
    ],
    "latitude": 30.3927963,
    "longitude": -97.7258778
  },
  {
    "id": "nail-salons-austin-08",
    "name": "Square Nails Austin",
    "category": "nail-salons",
    "city": "austin",
    "state": "Texas",
    "address": "9503 Research Blvd #550, Austin, TX 78759",
    "phone": "(512) 514-0048",
    "website": "https://squarenailsaustin.com/",
    "rating": 4.9,
    "reviewCount": 628,
    "description": "Contemporary nail salon featuring modern techniques and trending designs.",
    "services": [
      "Manicures",
      "Pedicures"
    ],
    "neighborhood": "North Central",
    "hours": {
      "Thursday": "9:30 AM–7:30 PM",
      "Friday": "9:30 AM–7:30 PM",
      "Saturday": "9:30 AM–7:30 PM",
      "Sunday": "11 AM–5 PM",
      "Monday": "9:30 AM–7:30 PM",
      "Tuesday": "9:30 AM–7:30 PM",
      "Wednesday": "9:30 AM–7:30 PM"
    },
    "image": "https://lh3.googleusercontent.com/p/AF1QipPAo5z-klw8oW3y1QBSbO31XqGztZM-glOrW097",
    "premium": false,
    "bookingLinks": [
      "https://squarenailsaustin.com/"
    ],
    "latitude": 30.3867866,
    "longitude": -97.7420734
  },
  {
    "id": "nail-salons-austin-09",
    "name": "Highland Nails & Spa",
    "category": "nail-salons",
    "city": "austin",
    "state": "Texas",
    "address": "109 Jacob Fontaine Ln #700, Austin, TX 78752",
    "phone": "(512) 220-9510",
    "website": "https://highlandnailsatx.com/",
    "rating": 4.6,
    "reviewCount": 533,
    "description": "Neighborhood nail spa offering quality services with personal attention.",
    "services": [
      "Manicures",
      "Pedicures",
      "Spa Treatments"
    ],
    "neighborhood": "Central Austin",
    "hours": {
      "Thursday": "9:30 AM–7:30 PM",
      "Friday": "9:30 AM–7:30 PM",
      "Saturday": "9:30 AM–7 PM",
      "Sunday": "11 AM–6 PM",
      "Monday": "9:30 AM–7:30 PM",
      "Tuesday": "9:30 AM–7:30 PM",
      "Wednesday": "9:30 AM–7:30 PM"
    },
    "image": "https://lh3.googleusercontent.com/p/AF1QipNHBqD0bkNqefAYwrhxwcLuhvPKCygZojFXXZ4U",
    "premium": false,
    "bookingLinks": [
      "https://www.facebook.com/highlandnailsatx/"
    ],
    "latitude": 30.3251382,
    "longitude": -97.7150849
  },
  {
    "id": "nail-salons-austin-10",
    "name": "Arbor Nail Bar",
    "category": "nail-salons",
    "city": "austin",
    "state": "Texas",
    "address": "10515 N Mopac Expy Suite A126, Austin, TX 78759",
    "phone": "(512) 514-0027",
    "website": "http://arbornailbar.com/",
    "rating": 4.6,
    "reviewCount": 554,
    "description": "Upscale nail bar providing premium treatments in a chic setting.",
    "services": [
      "Manicures",
      "Pedicures"
    ],
    "neighborhood": "North Austin",
    "hours": {
      "Thursday": "9:30 AM–7 PM",
      "Friday": "9:30 AM–7 PM",
      "Saturday": "9:30 AM–7 PM",
      "Sunday": "11 AM–5 PM",
      "Monday": "9:30 AM–7 PM",
      "Tuesday": "9:30 AM–7 PM",
      "Wednesday": "9:30 AM–7 PM"
    },
    "image": "https://lh3.googleusercontent.com/p/AF1QipO2i1lWq24NaHWx1HI-TAf0n2G_J9xsnMMJDSrL",
    "premium": false,
    "bookingLinks": [
      "https://arbornailbar.com?rwg_token=ACgRB3e6qx4R6eGaj-84acN1NU7Ws_4ykYgK456HtFKoucbnQLixf4ivHSBXdApG5RPVaen_h4CWIhmewOO5W0LA05Lcgvy0HyEdVgSInTk4MkGB8crOXBs%3D"
    ],
    "latitude": 30.3894557,
    "longitude": -97.7324463
  },
  {
    "id": "nail-salons-austin-11",
    "name": "Designer Nails",
    "category": "nail-salons",
    "city": "austin",
    "state": "Texas",
    "address": "5716 W US Hwy 290 Service Rd, Austin, TX 78735",
    "phone": "(512) 899-3015",
    "website": "https://www.lldtek.org/salon/appt/VkZoZk1Ea3lPREk9",
    "rating": 4.8,
    "reviewCount": 469,
    "description": "Designer nail salon offering nail services, beauty treatments, and waxing.",
    "services": [
      "Manicures",
      "Pedicures",
      "Beauty Treatments",
      "Waxing Services"
    ],
    "neighborhood": "Southwest Austin",
    "hours": {
      "Thursday": "10:30 AM–7:30 PM",
      "Friday": "10:30 AM–7:30 PM",
      "Saturday": "10:30 AM–7:30 PM",
      "Sunday": "11:30 AM–6:30 PM",
      "Monday": "10:30 AM–7:30 PM",
      "Tuesday": "10:30 AM–7:30 PM",
      "Wednesday": "10:30 AM–7:30 PM"
    },
    "image": "https://lh3.googleusercontent.com/p/AF1QipMNVSyNAhCnExkHGEp9XrU3TFGqO9uRLazBA9GR",
    "premium": false,
    "bookingLinks": [],
    "latitude": 30.2367957,
    "longitude": -97.8472393
  },
  {
    "id": "nail-salons-austin-12",
    "name": "Queen Spa",
    "category": "nail-salons",
    "city": "austin",
    "state": "Texas",
    "address": "2110 S Lamar Blvd suite d, Austin, TX 78704",
    "phone": "(512) 294-2093",
    "website": "http://www.queenspa.com/",
    "rating": 4.3,
    "reviewCount": 616,
    "description": "Comprehensive beauty destination with nail, facial, and eyelash services.",
    "services": [
      "Manicures",
      "Pedicures",
      "Beauty Treatments",
      "Eyelash Extensions",
      "Facial Treatments",
      "Spa Treatments"
    ],
    "neighborhood": "South Austin",
    "hours": {
      "Thursday": "9 AM–7:30 PM",
      "Friday": "9 AM–7:30 PM",
      "Saturday": "9 AM–6 PM",
      "Sunday": "10 AM–6 PM",
      "Monday": "9 AM–7:30 PM",
      "Tuesday": "9 AM–7:30 PM",
      "Wednesday": "9 AM–7:30 PM"
    },
    "image": "https://lh3.googleusercontent.com/p/AF1QipOPJf-Oy8owcMCiR8iGlwN7YE2_zKQa0hho6ZZd",
    "premium": false,
    "bookingLinks": [],
    "latitude": 30.248345,
    "longitude": -97.771396
  },
  {
    "id": "nail-salons-austin-13",
    "name": "Cute Nail Studio",
    "category": "nail-salons",
    "city": "austin",
    "state": "Texas",
    "address": "1211 E 7th St, Austin, TX 78702",
    "phone": "(512) 937-2659",
    "website": "http://cutenailstudio.com/",
    "rating": 4.5,
    "reviewCount": 595,
    "description": "Trendy nail studio offering comprehensive beauty services until late hours.",
    "services": [
      "Manicures",
      "Pedicures",
      "Beauty Treatments",
      "Eyelash Extensions",
      "Facial Treatments",
      "Waxing Services"
    ],
    "neighborhood": "East Austin",
    "hours": {
      "Thursday": "10 AM–10 PM",
      "Friday": "10 AM–10 PM",
      "Saturday": "10 AM–4 PM",
      "Sunday": "11 AM–8 PM",
      "Monday": "10 AM–10 PM",
      "Tuesday": "4–10 PM",
      "Wednesday": "10 AM–10 PM"
    },
    "image": "https://lh3.googleusercontent.com/p/AF1QipMOBw9lM5b2Sjy1b1Jou6svPHwp0t2RWrFKfjS0",
    "premium": false,
    "bookingLinks": [
      "https://www.vagaro.com/googlemap/U2FsdGVkX18oQ8qFOjXDsT-I4b7MWqExy2RxNvyFk8k=?rwg_token=ACgRB3dPtT8iLqaX0NdBcOtBKkPGqqdAnyxTsaONDbNP3gC8svFSWPF4qb0zZbV28sEfT30WDp42gu46mCqivgbDZZy-Eck_1oO_gf5A0T75ltH4r6ptqAo%3D"
    ],
    "latitude": 30.2646986,
    "longitude": -97.729433
  },
  {
    "id": "nail-salons-austin-14",
    "name": "SugarCoat & Co Beauty Bar",
    "category": "nail-salons",
    "city": "austin",
    "state": "Texas",
    "address": "1000 E 41st St Suite 220, Austin, TX 78751",
    "phone": "(512) 888-9462",
    "website": "http://sugarcoatandcobeautybar.com/",
    "rating": 4.9,
    "reviewCount": 1052,
    "description": "Boutique nail salon specializing in custom nail art and beauty services.",
    "services": [
      "Manicures",
      "Pedicures",
      "Nail Art"
    ],
    "neighborhood": "Central Austin",
    "hours": {
      "Thursday": "9:30 AM–7 PM",
      "Friday": "9:30 AM–7 PM",
      "Saturday": "9:30 AM–6:30 PM",
      "Sunday": "11 AM–5:30 PM",
      "Monday": "9:30 AM–7 PM",
      "Tuesday": "9:30 AM–7 PM",
      "Wednesday": "9:30 AM–7 PM"
    },
    "image": "https://lh3.googleusercontent.com/p/AF1QipOr_3hdfV--0uNinhK_ObcQ6o4cDPExcEFnvm1B",
    "premium": true,
    "bookingLinks": [
      "https://sugarcoatandcobeautybar.com/booking/",
      "https://booksy.com/en-us/rwg/1311318_sugarcoat-co-beauty-bar_nail-salon_134608_austin?rwg_token=ACgRB3fPO8Afxo6udXFKYkeE8aFvmB8SLJ1NseuVKBBgTRlk3Jd5BM5ZH-Ldd7gJWZh3ABzEqYwNKhCUB8UJfQ8tpmxKvztax_mutZu_7jt_pjKWQvXGnhw%3D"
    ],
    "latitude": 30.3001324,
    "longitude": -97.7213968
  },
  {
    "id": "nail-salons-austin-15",
    "name": "Dream Spa Beauty lounge",
    "category": "nail-salons",
    "city": "austin",
    "state": "Texas",
    "address": "5301 Airport Blvd UNIT 200, Austin, TX 78751",
    "phone": "(512) 382-7500",
    "website": "https://www.dreamspaatx.net/",
    "rating": 4.4,
    "reviewCount": 330,
    "description": "Complete spa and beauty lounge featuring nail services and wellness treatments.",
    "services": [
      "Manicures",
      "Pedicures",
      "Massage",
      "Spa Treatments",
      "Waxing Services"
    ],
    "neighborhood": "Central East",
    "hours": {
      "Thursday": "9:30 AM–7 PM",
      "Friday": "9:30 AM–7:30 PM",
      "Saturday": "9:35 AM–7 PM",
      "Sunday": "9:30 AM–5 PM",
      "Monday": "9:30 AM–7:30 PM",
      "Tuesday": "Closed",
      "Wednesday": "9:30 AM–7:30 PM"
    },
    "image": "https://lh3.googleusercontent.com/p/AF1QipOAZXEhJXpYrSSfnEvVJ0RDX76KS6oMqo1xE35M",
    "premium": false,
    "bookingLinks": [],
    "latitude": 30.3140506,
    "longitude": -97.7144728
  },
  {
    "id": "nail-salons-austin-16",
    "name": "In Fashion Nails",
    "category": "nail-salons",
    "city": "austin",
    "state": "Texas",
    "address": "9607 Research Blvd Suite 130, Austin, TX 78759",
    "phone": "(512) 342-9780",
    "website": "https://infashionnails.com/",
    "rating": 4.8,
    "reviewCount": 686,
    "description": "Fashion-forward nail salon and spa keeping up with the latest trends.",
    "services": [
      "Manicures",
      "Pedicures",
      "Beauty Treatments",
      "Spa Treatments",
      "Waxing Services"
    ],
    "neighborhood": "North Central",
    "hours": {
      "Thursday": "10 AM–7:30 PM",
      "Friday": "10 AM–7:30 PM",
      "Saturday": "10 AM–7:30 PM",
      "Sunday": "11 AM–5 PM",
      "Monday": "10 AM–7:30 PM",
      "Tuesday": "10 AM–7:30 PM",
      "Wednesday": "10 AM–7:30 PM"
    },
    "image": "https://lh3.googleusercontent.com/p/AF1QipObK2jvwgo2jNW6m1aDrUff7R7Rgwl0ofprTSS1",
    "premium": false,
    "bookingLinks": [
      "https://infashionnails.com/booking/"
    ],
    "latitude": 30.3896168,
    "longitude": -97.7428267
  },
  {
    "id": "nail-salons-austin-17",
    "name": "Austin Regalia Nail & Spa",
    "category": "nail-salons",
    "city": "austin",
    "state": "Texas",
    "address": "4036 S Lamar Blvd APT 500, Austin, TX 78704",
    "phone": "(512) 916-8989",
    "website": "https://regalianailsandspaaustin.com/",
    "rating": 4.5,
    "reviewCount": 285,
    "description": "Elegant nail and spa services in a luxurious setting.",
    "services": [
      "Manicures",
      "Pedicures",
      "Spa Treatments"
    ],
    "neighborhood": "South Austin",
    "hours": {
      "Thursday": "9:30 AM–7:30 PM",
      "Friday": "9:30 AM–7:30 PM",
      "Saturday": "9:30 AM–7:30 PM",
      "Sunday": "11:30 AM–5:30 PM",
      "Monday": "9:30 AM–7:30 PM",
      "Tuesday": "9:30 AM–7:30 PM",
      "Wednesday": "9:30 AM–7:30 PM"
    },
    "image": "https://lh3.googleusercontent.com/p/AF1QipPoHFodvrKlgusqHKnHVvajiqoQvgWFqf1gpr7w",
    "premium": false,
    "bookingLinks": [],
    "latitude": 30.2371753,
    "longitude": -97.7944689
  },
  {
    "id": "nail-salons-austin-18",
    "name": "Organic Spa Nails",
    "category": "nail-salons",
    "city": "austin",
    "state": "Texas",
    "address": "1920 E Riverside Dr Ste 130, Austin, TX 78741",
    "phone": "(512) 953-5262",
    "website": "https://organicspaandnailsaustin.com/",
    "rating": 4.3,
    "reviewCount": 877,
    "description": "Organic nail spa focusing on natural, eco-friendly treatments.",
    "services": [
      "Manicures",
      "Pedicures",
      "Organic Nail Treatments",
      "Spa Treatments"
    ],
    "neighborhood": "Riverside",
    "hours": {
      "Thursday": "9 AM–7:30 PM",
      "Friday": "9 AM–7:30 PM",
      "Saturday": "9 AM–7:30 PM",
      "Sunday": "10 AM–6 PM",
      "Monday": "9:30 AM–7:30 PM",
      "Tuesday": "9:30 AM–7:30 PM",
      "Wednesday": "9:30 AM–7:30 PM"
    },
    "image": "https://lh3.googleusercontent.com/p/AF1QipPv_uUC9JbK-gxqTUGLJJzn2pQqoLJVEFGP9j43",
    "premium": false,
    "bookingLinks": [
      "https://booking.fideliasolutions.com/TX65382"
    ],
    "latitude": 30.242215,
    "longitude": -97.7273341
  },
  {
    "id": "nail-salons-austin-19",
    "name": "V360 Nail Lounge",
    "category": "nail-salons",
    "city": "austin",
    "state": "Texas",
    "address": "1414 S Lamar Blvd UNIT 107, Austin, TX 78704",
    "phone": "(512) 995-7777",
    "website": "https://v360austin.com/",
    "rating": 4.7,
    "reviewCount": 432,
    "description": "Modern nail lounge offering comprehensive nail services with style.",
    "services": [
      "Manicures",
      "Pedicures"
    ],
    "neighborhood": "South Austin",
    "hours": {
      "Thursday": "11 AM–7 PM",
      "Friday": "11 AM–7 PM",
      "Saturday": "11 AM–7 PM",
      "Sunday": "Closed",
      "Monday": "11 AM–7 PM",
      "Tuesday": "11 AM–7 PM",
      "Wednesday": "11 AM–7 PM"
    },
    "image": "https://lh3.googleusercontent.com/p/AF1QipPhbcd03ygQ5yFDq6sqv5EyQY14aGh-HvpOFW5l",
    "premium": false,
    "bookingLinks": [
      "http://booksy.info/thevenetian360"
    ],
    "latitude": 30.2528334,
    "longitude": -97.7639172
  },
  {
    "id": "nail-salons-austin-20",
    "name": "Moncheri Nails Lounge",
    "category": "nail-salons",
    "city": "austin",
    "state": "Texas",
    "address": "2400 E 6th St #117, Austin, TX 78702",
    "phone": "(512) 693-8185",
    "website": "https://www.moncherinailslounge.com/",
    "rating": 4.9,
    "reviewCount": 381,
    "description": "Boutique nail lounge providing personalized, high-quality nail services.",
    "services": [
      "Manicures",
      "Pedicures"
    ],
    "neighborhood": "East Austin",
    "hours": {
      "Thursday": "10 AM–7 PM",
      "Friday": "10 AM–7 PM",
      "Saturday": "10 AM–6 PM",
      "Sunday": "11 AM–6 PM",
      "Monday": "10 AM–7 PM",
      "Tuesday": "10 AM–7 PM",
      "Wednesday": "10 AM–7 PM"
    },
    "image": "https://lh3.googleusercontent.com/p/AF1QipPSOpSyrogQdoYRxF7hIN5K4KCmUCZ7PxMUBT_A",
    "premium": false,
    "bookingLinks": [
      "https://getabc.net/feedback/appointment?appid=tQf42zN"
    ],
    "latitude": 30.2597732,
    "longitude": -97.716
  },
  {
    "id": "water-refill-san-francisco-01",
    "name": "AquaPure Station - Downtown",
    "category": "water-refill",
    "city": "san-francisco",
    "state": "California",
    "address": "100 Main Street, San Francisco, CA 94102",
    "phone": "(415) 555-0123",
    "website": "https://aquapure.com",
    "rating": 4.6,
    "reviewCount": 189,
    "description": "Premium water refill station with advanced filtration and purification systems.",
    "services": [
      "Purified Water",
      "Alkaline Water", 
      "Distilled Water",
      "Reverse Osmosis"
    ],
    "neighborhood": "SOMA",
    "hours": {
      "monday": "24 hours",
      "tuesday": "24 hours", 
      "wednesday": "24 hours",
      "thursday": "24 hours",
      "friday": "24 hours",
      "saturday": "24 hours",
      "sunday": "24 hours"
    },
    "amenities": ["24/7 Access", "Credit Cards", "Mobile Pay", "Maintenance"],
    "priceRange": "$",
    "images": [],
    "premium": false,
    "latitude": 37.7749,
    "longitude": -122.4194
  },
  {
    "id": "water-refill-san-francisco-02", 
    "name": "Crystal Clear Refill - Mission",
    "category": "water-refill",
    "city": "san-francisco",
    "state": "California",
    "address": "101 Mission Street, San Francisco, CA 94105",
    "phone": "(415) 555-0124",
    "website": "https://crystalclear.com",
    "rating": 4.5,
    "reviewCount": 156,
    "description": "Family-owned water refill station serving the community for over 10 years.",
    "services": [
      "Spring Water",
      "Electrolyte Water",
      "pH Balanced Water",
      "Bulk Water Sales"
    ],
    "neighborhood": "Mission District",
    "hours": {
      "monday": "6:00 AM - 10:00 PM",
      "tuesday": "6:00 AM - 10:00 PM",
      "wednesday": "6:00 AM - 10:00 PM", 
      "thursday": "6:00 AM - 10:00 PM",
      "friday": "6:00 AM - 11:00 PM",
      "saturday": "7:00 AM - 11:00 PM",
      "sunday": "8:00 AM - 9:00 PM"
    },
    "amenities": ["Credit Cards", "Cash Only", "Loyalty Program"],
    "priceRange": "$",
    "images": [],
    "premium": false,
    "latitude": 37.7849,
    "longitude": -122.4094
  },
  {
    "id": "water-refill-san-francisco-03",
    "name": "Blue Drop Water - Sunset",
    "category": "water-refill", 
    "city": "san-francisco",
    "state": "California",
    "address": "102 Sunset Blvd, San Francisco, CA 94116",
    "phone": "(415) 555-0125",
    "website": "https://bluedrop.com",
    "rating": 4.0,
    "reviewCount": 98,
    "description": "Neighborhood water refill station with competitive prices and quality water.",
    "services": [
      "Mineral Water",
      "Water Testing",
      "Purified Water",
      "Alkaline Water"
    ],
    "neighborhood": "Sunset District",
    "hours": {
      "monday": "7:00 AM - 9:00 PM",
      "tuesday": "7:00 AM - 9:00 PM",
      "wednesday": "7:00 AM - 9:00 PM",
      "thursday": "7:00 AM - 9:00 PM", 
      "friday": "7:00 AM - 10:00 PM",
      "saturday": "8:00 AM - 10:00 PM",
      "sunday": "9:00 AM - 8:00 PM"
    },
    "amenities": ["Credit Cards", "Water Quality Reports", "Custom Containers"],
    "priceRange": "$",
    "images": [],
    "premium": false,
    "latitude": 37.7649,
    "longitude": -122.4294
  }
]